[{"name":"Lord Byng","address":"3939 16th Ave W Vancouver, BC V6R 3C9","rating":8.3,"rank":"21/284","district":"West Point Grey","location":[-123.1922574,49.2581564],"url":"http://britishcolumbia.compareschoolrankings.org/secondary/Lord_Byng_Secondary/Vancouver/Report_Card.aspx","id":"c16795c08f53a8d6"},{"name":"West Point Grey","address":"4125 8th Ave W Vancouver, BC V6R 4P9","rating":9.3,"rank":"5/284","district":"West Point Grey","location":[-123.2015074,49.2670664],"url":"http://britishcolumbia.compareschoolrankings.org/secondary/West_Point_Grey_Academy/Vancouver/Report_Card.aspx","id":"f9d4b854f0f7d831"},{"name":"Notre Dame","address":"2855 Parker St Vancouver, BC V5K 2T8","rating":7.1,"rank":"66/284","district":"Hastings-Sunrise","location":[-123.0455666,49.2758029],"url":"http://britishcolumbia.compareschoolrankings.org/secondary/Notre_Dame_Regional_Secondary/Vancouver/Report_Card.aspx","id":"4d2eb6eb371b583c"},{"name":"Killarney","address":"6454 Killarney St Vancouver, BC V5S 2X7","rating":5.6,"rank":"173/284","district":"Killarney","location":[-123.0441755,49.225593],"url":"http://britishcolumbia.compareschoolrankings.org/secondary/Killarney_Secondary/Vancouver/Report_Card.aspx","id":"c9b18a917fe85a85"},{"name":"Eric Hamber","address":"5025 Willow St Vancouver, BC V5Z 3S1","rating":6,"rank":"142/284","district":"South Cambie","location":[-123.1257512,49.2402178],"url":"http://britishcolumbia.compareschoolrankings.org/secondary/Eric_Hamber_Secondary/Vancouver/Report_Card.aspx","id":"76a085c8e706880b"},{"name":"St Patrick's","address":"115 11th Ave E Vancouver, BC V5T 2C1","rating":7.1,"rank":"66/284","district":"Mount Pleasant","location":[-123.1026866,49.2611643],"url":"http://britishcolumbia.compareschoolrankings.org/secondary/St_Patrick_Regional_Secondary/Vancouver/Report_Card.aspx","id":"7b5c9733605b5869"},{"name":"Kitsilano","address":"2550 10th Ave W Vancouver, BC V6K 2J6","rating":7.1,"rank":"66/284","district":"Kitsilano","location":[-123.1636,49.2620811],"url":"http://britishcolumbia.compareschoolrankings.org/secondary/Kitsilano_Secondary/Vancouver/Report_Card.aspx","id":"d9a2d9ca7ebb5af5"},{"name":"Vancouver Technical","address":"2600 Broadway E Vancouver, BC V5M 1Y5","rating":5.6,"rank":"173/284","district":"Renfrew-Collingwood","location":[-123.0512799,49.2601029],"url":"http://britishcolumbia.compareschoolrankings.org/secondary/Vancouver_Technical_Secondary/Vancouver/Report_Card.aspx","id":"b26aaa39d288182f"},{"name":"St John's","address":"2215 10th Ave W Vancouver, BC V6K 2J1","rating":7,"rank":"74/284","district":"Kitsilano","location":[-123.1555549,49.2629283],"url":"http://britishcolumbia.compareschoolrankings.org/secondary/St_John's_School/Vancouver/Report_Card.aspx","id":"f61f9ffb2d7d0b70"},{"name":"Gladstone","address":"4105 Gladstone St Vancouver, BC V5N 4Z2","rating":5.4,"rank":"188/284","district":"Kensington-Cedar Cottage","location":[-123.0616134,49.2486112],"url":"http://britishcolumbia.compareschoolrankings.org/secondary/Gladstone_Secondary/Vancouver/Report_Card.aspx","id":"f5d3223363a84b39"},{"name":"King George","address":"1755 Barclay St Vancouver, BC V6G 1K6","rating":5,"rank":"217/284","district":"West End","location":[-123.1360738,49.289913],"url":"http://britishcolumbia.compareschoolrankings.org/secondary/King_George_Secondary/Vancouver/Report_Card.aspx","id":"0093f098e140a80f"},{"name":"Windermere","address":"3155 27th Ave E Vancouver, BC V5R 1P3","rating":5.5,"rank":"179/284","district":"Renfrew-Collingwood","location":[-123.0378463,49.2474729],"url":"http://britishcolumbia.compareschoolrankings.org/secondary/Windermere_Community_Secondary/Vancouver/Report_Card.aspx","id":"33cf7182c2ec39f4"},{"name":"David Thompson","address":"1755 55th Ave E Vancouver, BC V5P 1Z7","rating":5.4,"rank":"188/284","district":"Victoria-Fraserview","location":[-123.0705456,49.220889],"url":"http://britishcolumbia.compareschoolrankings.org/secondary/David_Thompson_Secondary/Vancouver/Report_Card.aspx","id":"a1a5fbe8843e5872"},{"name":"Templeton","address":"727 Templeton Dr Vancouver, BC V5L 4N8","rating":4.7,"rank":"236/284","district":"Grandview-Woodland","location":[-123.0598497,49.2780674],"url":"http://britishcolumbia.compareschoolrankings.org/secondary/Templeton_Secondary/Vancouver/Report_Card.aspx","id":"93aad844a586187a"},{"name":"John Oliver","address":"530 41st Ave E Vancouver, BC V5W 1P3","rating":5,"rank":"217/284","district":"Sunset","location":[-123.0926825,49.2319794],"url":"http://britishcolumbia.compareschoolrankings.org/secondary/John_Oliver_Secondary/Vancouver/Report_Card.aspx","id":"f8b6330b77059a39"},{"name":"Britannia","address":"1001 Cotton Dr Vancouver, BC V5L 3T4","rating":3.5,"rank":"270/284","district":"Grandview-Woodland","location":[-123.0719512,49.2747666],"url":"http://britishcolumbia.compareschoolrankings.org/secondary/Britannia_Community_Secondary/Vancouver/Report_Card.aspx","id":"dfa4625d69f3b8e5"},{"name":"St John's International","address":"300-1885 Broadway W Vancouver, BC V6J 1Y5","rating":0.4,"rank":"281/284","district":"Kitsilano","location":[-123.1477987,49.2637905],"url":"http://britishcolumbia.compareschoolrankings.org/secondary/St_John's_International/Vancouver/Report_Card.aspx","id":"f7bcbc0166d8e8d1"},{"name":"Century International","address":"1788 Broadway W Unit 300 Vancouver, BC V6J 1Y1","rating":0,"rank":"282/284","district":"Fairview","location":[-123.1453144,49.2633848],"url":"http://britishcolumbia.compareschoolrankings.org/secondary/Century_High_School/Vancouver/Report_Card.aspx","id":"e52701dcade78b67"},{"name":"Sir Charles Tupper","address":"419 24th Ave E Vancouver, BC V5V 2A2","rating":4.7,"rank":"236/284","district":"Riley Park","location":[-123.0962466,49.2493259],"url":"http://britishcolumbia.compareschoolrankings.org/secondary/Sir_Charles_Tupper_Secondary/Vancouver/Report_Card.aspx","id":"e1b8d36c1e140b05"},{"name":"York House","address":"4176 Alexandra St Vancouver, BC V6J 2V6","rating":10,"rank":"1/284","district":"Shaughnessy","location":[-123.1403401,49.2488483],"url":"http://britishcolumbia.compareschoolrankings.org/secondary/York_House_School/Vancouver/Report_Card.aspx","id":"0704065b79118824"},{"name":"Crofton House","address":"3200 41st Ave W Vancouver, BC V6N 3E1","rating":10,"rank":"1/284","district":"Kerrisdale","location":[-123.1757559,49.2346869],"url":"http://britishcolumbia.compareschoolrankings.org/secondary/Crofton_House/Vancouver/Report_Card.aspx","id":"47db94c6c067f8ed"},{"name":"Vancouver College","address":"5400 Cartier St Vancouver, BC V6M 3A5","rating":8.6,"rank":"15/284","district":"Shaughnessy","location":[-123.1370785,49.2370392],"url":"http://britishcolumbia.compareschoolrankings.org/secondary/Vancouver_College/Vancouver/Report_Card.aspx","id":"0d820b85e3ca9884"},{"name":"St George's","address":"4175 W 29th Ave Vancouver, BC V6S 1V1","rating":9.5,"rank":"4/284","district":"Dunbar-Southlands","location":[-123.2001483,49.2469453],"url":"http://britishcolumbia.compareschoolrankings.org/secondary/St_George's_School/Vancouver/Report_Card.aspx","id":"4eac8823559ca832"},{"name":"Little Flower","address":"4195 Alexandra St Vancouver, BC V6J 4C6","rating":9.3,"rank":"5/284","district":"Shaughnessy","location":[-123.1422615,49.2484314],"url":"http://britishcolumbia.compareschoolrankings.org/secondary/Little_Flower_Academy/Vancouver/Report_Card.aspx","id":"1fb90bf8dd7c196a"},{"name":"Prince Of Wales","address":"2250 Eddington Dr Vancouver, BC V6L 2E7","rating":7.7,"rank":"37/284","district":"Arbutus-Ridge","location":[-123.1572844,49.2454718],"url":"http://britishcolumbia.compareschoolrankings.org/secondary/Prince_of_Wales_Secondary/Vancouver/Report_Card.aspx","id":"a68ca7786de718e5"},{"name":"Point Grey","address":"5350 East Blvd Vancouver, BC V6M 3V2","rating":7.3,"rank":"54/284","district":"Shaughnessy","location":[-123.1534306,49.2372891],"url":"http://britishcolumbia.compareschoolrankings.org/secondary/Point_Grey_Secondary/Vancouver/Report_Card.aspx","id":"25e173d872619889"},{"name":"Magee","address":"6360 Maple St Vancouver, BC V6M 4M2","rating":7.5,"rank":"44/284","district":"Kerrisdale","location":[-123.1522392,49.2284128],"url":"http://britishcolumbia.compareschoolrankings.org/secondary/Magee_Secondary/Vancouver/Report_Card.aspx","id":"73989ebada5819c7"},{"name":"Sir Winston Churchill","address":"7055 Heather St Vancouver, BC V6P 3P7","rating":7.2,"rank":"57/284","district":"Oakridge","location":[-123.1256422,49.2204183],"url":"http://britishcolumbia.compareschoolrankings.org/secondary/Sir_Winston_Churchill_Secondary/Vancouver/Report_Card.aspx","id":"4dc5bdc778f89867"}]